[
  {
    "id": "08f78223-24f8-4b71-b381-ea19a5bd82df",
    "name": "11 Below Brewing Company",
    "brewery_type": "micro",
    "address_1": "6820 Bourgeois Rd",
    "address_2": null,
    "address_3": null,
    "city": "Houston",
    "state_province": "Texas",
    "postal_code": "77066-3107",
    "country": "United States",
    "longitude": "-95.5186591",
    "latitude": "29.9515464",
    "phone": "2814442337",
    "website_url": "http://www.11belowbrewing.com",
    "state": "Texas",
    "street": "6820 Bourgeois Rd"
  },
  {
    "id": "d6e77d51-2fa2-44cb-89b3-c94bf1dc77df",
    "name": "28th State Brewing",
    "brewery_type": "planning",
    "address_1": null,
    "address_2": null,
    "address_3": null,
    "city": "Houston",
    "state_province": "Texas",
    "postal_code": "77095-6933",
    "country": "United States",
    "longitude": null,
    "latitude": null,
    "phone": null,
    "website_url": "https://www.instagram.com/28thstatebrew/?hl=en",
    "state": "Texas",
    "street": null
  },
  {
    "id": "aea0a6f9-557e-4907-be23-d80737a071e4",
    "name": "4J Brewing Company",
    "brewery_type": "micro",
    "address_1": "1348 Cedar Post Ln.",
    "address_2": null,
    "address_3": null,
    "city": "Houston",
    "state_province": "Texas",
    "postal_code": "77055",
    "country": "United States",
    "longitude": null,
    "latitude": null,
    "phone": "7136780776",
    "website_url": "https://4jbrewingcompany.com",
    "state": "Texas",
    "street": "1348 Cedar Post Ln."
  },
  {
    "id": "c2bc693f-906a-46a0-a5f9-82eab2d2845b",
    "name": "8th Wonder Brewery",
    "brewery_type": "micro",
    "address_1": "2202 Dallas St",
    "address_2": null,
    "address_3": null,
    "city": "Houston",
    "state_province": "Texas",
    "postal_code": "77003-3519",
    "country": "United States",
    "longitude": "-95.3559402",
    "latitude": "29.7487783",
    "phone": "7133970072",
    "website_url": "http://www.8thwonderbrew.com",
    "state": "Texas",
    "street": "2202 Dallas St"
  },
  {
    "id": "34dd23fd-b208-4a7b-b4d2-3488b20e618f",
    "name": "Anheuser-Busch Inc â Houston",
    "brewery_type": "large",
    "address_1": "775 Gellhorn Dr",
    "address_2": null,
    "address_3": null,
    "city": "Houston",
    "state_province": "Texas",
    "postal_code": "77029-1496",
    "country": "United States",
    "longitude": "-95.27130674",
    "latitude": "29.771858",
    "phone": "7136752311",
    "website_url": null,
    "state": "Texas",
    "street": "775 Gellhorn Dr"
  },
  {
    "id": "d916497e-0b1b-48aa-8add-10a62c0b3e90",
    "name": "Astral Brewing",
    "brewery_type": "micro",
    "address_1": "4816 N Shepherd Dr suite a",
    "address_2": null,
    "address_3": null,
    "city": "Houston",
    "state_province": "Texas",
    "postal_code": "77018",
    "country": "United States",
    "longitude": null,
    "latitude": null,
    "phone": "7135341067",
    "website_url": "https://www.astralbrewing.com",
    "state": "Texas",
    "street": "4816 N Shepherd Dr suite a"
  },
  {
    "id": "a715d721-e382-45e3-a035-18edf1dee861",
    "name": "Baileson Brewing Company, LLC",
    "brewery_type": "micro",
    "address_1": "2322 Bissonnet St",
    "address_2": null,
    "address_3": null,
    "city": "Houston",
    "state_province": "Texas",
    "postal_code": "77005-1512",
    "country": "United States",
    "longitude": "-95.41337465",
    "latitude": "29.72562404",
    "phone": "8325169828",
    "website_url": "http://www.bailesonbrewing.com",
    "state": "Texas",
    "street": "2322 Bissonnet St"
  },
  {
    "id": "d67cae67-6bcf-4a02-92e0-76d81ebfb5b8",
    "name": "Black Page Brewing Co.",
    "brewery_type": "micro",
    "address_1": "210 Glen Park St.",
    "address_2": null,
    "address_3": null,
    "city": "Houston",
    "state_province": "Texas",
    "postal_code": "77009",
    "country": "United States",
    "longitude": null,
    "latitude": null,
    "phone": "7137846001",
    "website_url": "https://blackpagebrewing.com",
    "state": "Texas",
    "street": "210 Glen Park St."
  },
  {
    "id": "43c4cb4d-476d-4fce-989b-824dcc289d8f",
    "name": "Brash",
    "brewery_type": "micro",
    "address_1": "508 W Crosstimbers St",
    "address_2": null,
    "address_3": null,
    "city": "Houston",
    "state_province": "Texas",
    "postal_code": "77018-5521",
    "country": "United States",
    "longitude": "-95.40974166",
    "latitude": "29.82727538",
    "phone": null,
    "website_url": "http://www.brashbeers.com",
    "state": "Texas",
    "street": "508 W Crosstimbers St"
  },
  {
    "id": "7ce4f9c5-bf79-4d42-b7bb-aaa70cd2e069",
    "name": "Buffalo Bayou Brewing Co",
    "brewery_type": "micro",
    "address_1": "5301 Nolda St",
    "address_2": null,
    "address_3": null,
    "city": "Houston",
    "state_province": "Texas",
    "postal_code": "77007-2234",
    "country": "United States",
    "longitude": "-95.4160849",
    "latitude": "29.775978",
    "phone": "7137509795",
    "website_url": "http://www.buffbrew.com",
    "state": "Texas",
    "street": "5301 Nolda St"
  },
  {
    "id": "5eaf3169-986e-40f9-9f2b-426f04fee23b",
    "name": "City Acre Brewing Co",
    "brewery_type": "brewpub",
    "address_1": "3418 Topping St",
    "address_2": null,
    "address_3": null,
    "city": "Houston",
    "state_province": "Texas",
    "postal_code": "77093",
    "country": "United States",
    "longitude": "-95.3350882",
    "latitude": "29.8570358",
    "phone": "8323770237",
    "website_url": "http://www.cityacrebrewing.com",
    "state": "Texas",
    "street": "3418 Topping St"
  },
  {
    "id": "377038fb-785b-4d4c-bc17-2c8514340e76",
    "name": "Elder Son Brewing Co.",
    "brewery_type": "micro",
    "address_1": "946 N Shepherd Dr Suite A",
    "address_2": null,
    "address_3": null,
    "city": "Houston",
    "state_province": "Texas",
    "postal_code": "77008",
    "country": " United States",
    "longitude": null,
    "latitude": null,
    "phone": "7134855749",
    "website_url": "https://eldersonbrewing.com/",
    "state": "Texas",
    "street": "946 N Shepherd Dr Suite A"
  },
  {
    "id": "87c781ee-9196-4e43-84ad-347f007569a2",
    "name": "Equal Parts Brewing",
    "brewery_type": "micro",
    "address_1": "3118 Harrisburg Blvd",
    "address_2": null,
    "address_3": null,
    "city": "Houston",
    "state_province": "Texas",
    "postal_code": "77003",
    "country": "United States",
    "longitude": null,
    "latitude": null,
    "phone": "3463523190",
    "website_url": "http://www.equalpartsbrewing.com/",
    "state": "Texas",
    "street": "3118 Harrisburg Blvd"
  },
  {
    "id": "1540f10e-84b9-4af6-ac33-c3a8830aa67c",
    "name": "Eureka Heights Brewing Company",
    "brewery_type": "micro",
    "address_1": "941 W 18th St",
    "address_2": null,
    "address_3": null,
    "city": "Houston",
    "state_province": "Texas",
    "postal_code": "77008-3336",
    "country": "United States",
    "longitude": "-95.4164348",
    "latitude": "29.8019913",
    "phone": "8329534677",
    "website_url": "http://www.eurekaheights.com",
    "state": "Texas",
    "street": "941 W 18th St"
  },
  {
    "id": "5714fc64-53b8-45a0-98a6-c93575828a92",
    "name": "Flying Rhino Brewing Company",
    "brewery_type": "planning",
    "address_1": null,
    "address_2": null,
    "address_3": null,
    "city": "Houston",
    "state_province": "Texas",
    "postal_code": "77077-6108",
    "country": "United States",
    "longitude": null,
    "latitude": null,
    "phone": "8326510114",
    "website_url": "http://flyingrhinobrewing.com/",
    "state": "Texas",
    "street": null
  },
  {
    "id": "d07babfb-1113-4977-b24d-061f87c67eb1",
    "name": "Frost Town Brewing",
    "brewery_type": "micro",
    "address_1": "100 N Jackson St",
    "address_2": null,
    "address_3": null,
    "city": "Houston",
    "state_province": "Texas",
    "postal_code": "77002",
    "country": "United States",
    "longitude": null,
    "latitude": null,
    "phone": null,
    "website_url": "http://www.frosttownbrew.com/",
    "state": "Texas",
    "street": "100 N Jackson St"
  },
  {
    "id": "fb5582cb-ab8e-4a54-b59e-ad6d5092a60b",
    "name": "Great Heights Brewing Company",
    "brewery_type": "micro",
    "address_1": "938 Wakefield Dr",
    "address_2": null,
    "address_3": null,
    "city": "Houston",
    "state_province": "Texas",
    "postal_code": "77018-6204",
    "country": "United States",
    "longitude": "-95.4223629",
    "latitude": "29.8216738",
    "phone": "2812206900",
    "website_url": "http://www.greatheightsbrewing.com",
    "state": "Texas",
    "street": "938 Wakefield Dr"
  },
  {
    "id": "6a01fef8-dd06-4ba6-99f8-fca4874e14af",
    "name": "Gristworkz",
    "brewery_type": "brewpub",
    "address_1": "1504 Chapman St",
    "address_2": null,
    "address_3": null,
    "city": "Houston",
    "state_province": "Texas",
    "postal_code": "77009",
    "country": "United States",
    "longitude": null,
    "latitude": null,
    "phone": null,
    "website_url": "https://www.gristworkz.com/",
    "state": "Texas",
    "street": "1504 Chapman St"
  },
  {
    "id": "573e03df-998f-432d-b125-140ad05fc08c",
    "name": "Holler Brewing Company",
    "brewery_type": "micro",
    "address_1": "2206 Edwards St Ste A",
    "address_2": null,
    "address_3": null,
    "city": "Houston",
    "state_province": "Texas",
    "postal_code": "77007-4412",
    "country": "United States",
    "longitude": null,
    "latitude": null,
    "phone": "8327810555",
    "website_url": "http://www.hollerbeer.com",
    "state": "Texas",
    "street": "2206 Edwards St Ste A"
  },
  {
    "id": "dc0256fa-9a1f-4758-a2c0-73175c17ae2d",
    "name": "Industry Brewery",
    "brewery_type": "planning",
    "address_1": null,
    "address_2": null,
    "address_3": null,
    "city": "Houston",
    "state_province": "Texas",
    "postal_code": "77024-7146",
    "country": "United States",
    "longitude": null,
    "latitude": null,
    "phone": "7138514130",
    "website_url": null,
    "state": "Texas",
    "street": null
  },
  {
    "id": "4c8685f6-66d8-48c8-a80a-37edc0c7fa79",
    "name": "Karbach Brewing Co",
    "brewery_type": "large",
    "address_1": "2032 Karbach St",
    "address_2": null,
    "address_3": null,
    "city": "Houston",
    "state_province": "Texas",
    "postal_code": "77092-8406",
    "country": "United States",
    "longitude": "-95.4605283",
    "latitude": "29.8063812",
    "phone": null,
    "website_url": "https://www.karbachbrewing.com/",
    "state": "Texas",
    "street": "2032 Karbach St"
  },
  {
    "id": "de4d69d9-27e6-412f-8fd1-d32a1e05b4cc",
    "name": "Klaus Brewing Company",
    "brewery_type": "planning",
    "address_1": null,
    "address_2": null,
    "address_3": null,
    "city": "Houston",
    "state_province": "Texas",
    "postal_code": "77065",
    "country": "United States",
    "longitude": null,
    "latitude": null,
    "phone": "7134985004",
    "website_url": "http://www.klausbrewing.com",
    "state": "Texas",
    "street": null
  },
  {
    "id": "e5a8a40f-7285-4ab4-83d5-d0e4ceb39b3f",
    "name": "Local Group Brewing Company, LLC.",
    "brewery_type": "planning",
    "address_1": null,
    "address_2": null,
    "address_3": null,
    "city": "Houston",
    "state_province": "Texas",
    "postal_code": "77008-6844",
    "country": "United States",
    "longitude": null,
    "latitude": null,
    "phone": null,
    "website_url": null,
    "state": "Texas",
    "street": null
  },
  {
    "id": "90b5b8ad-037c-4372-96f4-5566dec973a2",
    "name": "Mallory Brewing",
    "brewery_type": "planning",
    "address_1": null,
    "address_2": null,
    "address_3": null,
    "city": "Houston",
    "state_province": "Texas",
    "postal_code": "77018",
    "country": "United States",
    "longitude": null,
    "latitude": null,
    "phone": null,
    "website_url": "https://www.facebook.com/profile.php?id=100063450295613",
    "state": "Texas",
    "street": null
  },
  {
    "id": "9bf8c8f9-ee9a-49b5-b80b-2a8cdb5ec407",
    "name": "Moon Tower Sudworks",
    "brewery_type": "brewpub",
    "address_1": "3004 Canal St",
    "address_2": null,
    "address_3": null,
    "city": "Houston",
    "state_province": "Texas",
    "postal_code": "77003-1627",
    "country": "United States",
    "longitude": "-95.3409715",
    "latitude": "29.7543105",
    "phone": "8322660105",
    "website_url": "http://www.damngoodfoodcoldassbeer.com",
    "state": "Texas",
    "street": "3004 Canal St"
  },
  {
    "id": "1f10e149-7bb3-43b4-9102-feebb8f5f65a",
    "name": "New Magnolia Brewing Co",
    "brewery_type": "micro",
    "address_1": "1616 Bevis St",
    "address_2": null,
    "address_3": null,
    "city": "Houston",
    "state_province": "Texas",
    "postal_code": "77008",
    "country": "United States",
    "longitude": null,
    "latitude": null,
    "phone": null,
    "website_url": "https://www.instagram.com/newmagnoliabrewing/?hl=en",
    "state": "Texas",
    "street": "1616 Bevis St"
  },
  {
    "id": "e4d21ea4-1561-47b0-bb15-876ab5defcfd",
    "name": "Platypus Brewing",
    "brewery_type": "brewpub",
    "address_1": "1902 Washington Ave Ste E",
    "address_2": null,
    "address_3": null,
    "city": "Houston",
    "state_province": "Texas",
    "postal_code": "77007-6414",
    "country": "United States",
    "longitude": null,
    "latitude": null,
    "phone": "8329858007",
    "website_url": "http://www.platypusbrewing.com",
    "state": "Texas",
    "street": "1902 Washington Ave Ste E"
  },
  {
    "id": "a19a3824-1bde-4652-a6ed-49e584d0d7d0",
    "name": "Ruba Brewing",
    "brewery_type": "micro",
    "address_1": "3310 Buttercup St",
    "address_2": null,
    "address_3": null,
    "city": "Houston",
    "state_province": "Texas",
    "postal_code": "77063",
    "country": "United States",
    "longitude": "-95.51694859",
    "latitude": "29.72879669",
    "phone": null,
    "website_url": "https://untappd.com/Ruba_Brewing",
    "state": "Texas",
    "street": "3310 Buttercup St"
  },
  {
    "id": "611a3d39-d0a2-4020-b9ce-87cbc545ad0d",
    "name": "Saint Arnold Brewing Co",
    "brewery_type": "regional",
    "address_1": "2000 Lyons Ave",
    "address_2": null,
    "address_3": null,
    "city": "Houston",
    "state_province": "Texas",
    "postal_code": "77020-2028",
    "country": "United States",
    "longitude": "-95.34846656",
    "latitude": "29.77112745",
    "phone": "7136869494",
    "website_url": "http://www.saintarnold.com",
    "state": "Texas",
    "street": "2000 Lyons Ave"
  },
  {
    "id": "b9ea4135-429b-4928-8cae-680dd9d6ad17",
    "name": "Sigma Brewing Company",
    "brewery_type": "micro",
    "address_1": "3118 Harrisburg Blvd # 108",
    "address_2": null,
    "address_3": null,
    "city": "Houston",
    "state_province": "Texas",
    "postal_code": "77003-2334",
    "country": "United States",
    "longitude": "-95.3435901",
    "latitude": "29.7489938",
    "phone": "3463523190",
    "website_url": "http://www.sigmabrewingcompany.com",
    "state": "Texas",
    "street": "3118 Harrisburg Blvd # 108"
  },
  {
    "id": "c870f079-c22b-477a-9d05-40f2e40e56a7",
    "name": "Southern Yankee Beer Company",
    "brewery_type": "planning",
    "address_1": null,
    "address_2": null,
    "address_3": null,
    "city": "Houston",
    "state_province": "Texas",
    "postal_code": "77073",
    "country": "United States",
    "longitude": null,
    "latitude": null,
    "phone": null,
    "website_url": "http://southernyankeebeer.com",
    "state": "Texas",
    "street": null
  },
  {
    "id": "57da9428-05ab-44e9-8f30-253292f1b1ea",
    "name": "Spindletap Brewery",
    "brewery_type": "micro",
    "address_1": "10622 Hirsch Rd",
    "address_2": null,
    "address_3": null,
    "city": "Houston",
    "state_province": "Texas",
    "postal_code": "77016-2622",
    "country": "United States",
    "longitude": "-95.3149254",
    "latitude": "29.8677396",
    "phone": "7133251477",
    "website_url": "http://www.spindletap.com",
    "state": "Texas",
    "street": "10622 Hirsch Rd"
  },
  {
    "id": "e8875dc6-aa58-4c97-90d5-7b5c4fa07d83",
    "name": "Stained Glass Beerworks",
    "brewery_type": "planning",
    "address_1": null,
    "address_2": null,
    "address_3": null,
    "city": "Houston",
    "state_province": "Texas",
    "postal_code": "77066-2310",
    "country": "United States",
    "longitude": null,
    "latitude": null,
    "phone": "7134529337",
    "website_url": "http://www.stainedglassbeerworks.com",
    "state": "Texas",
    "street": null
  },
  {
    "id": "3e98180b-d811-49d8-8085-f6a9f67af1ca",
    "name": "The Phoenix On Westheimer",
    "brewery_type": "brewpub",
    "address_1": "1915 Westheimer Rd",
    "address_2": null,
    "address_3": null,
    "city": "Houston",
    "state_province": "Texas",
    "postal_code": "77098-1521",
    "country": "United States",
    "longitude": "-95.4966157",
    "latitude": "29.7377481",
    "phone": "7135263100",
    "website_url": "http://www.phoenixow.com",
    "state": "Texas",
    "street": "1915 Westheimer Rd"
  },
  {
    "id": "24a7dd60-ad86-43d3-84ae-1e51aaf6d7f9",
    "name": "Town In City Brewing Co, LLC",
    "brewery_type": "micro",
    "address_1": "1125 W Cavalcade St",
    "address_2": null,
    "address_3": null,
    "city": "Houston",
    "state_province": "Texas",
    "postal_code": "77009-2907",
    "country": "United States",
    "longitude": "-95.3870438",
    "latitude": "29.8036158",
    "phone": "8328347151",
    "website_url": "http://townincitybrewing.com",
    "state": "Texas",
    "street": "1125 W Cavalcade St"
  },
  {
    "id": "7b231fe0-34a4-4e5d-84a9-c04cc5d9d8a8",
    "name": "True Anomaly Brewing",
    "brewery_type": "micro",
    "address_1": "2012 Dallas St",
    "address_2": null,
    "address_3": null,
    "city": "Houston",
    "state_province": "Texas",
    "postal_code": "77003",
    "country": "United States",
    "longitude": null,
    "latitude": null,
    "phone": "3467045701",
    "website_url": "http://www.trueanomalybrewing.com",
    "state": "Texas",
    "street": "2012 Dallas St"
  },
  {
    "id": "41b29d2c-64d2-4b0e-948c-66f6a93fc226",
    "name": "Turkey Forrest Brewing",
    "brewery_type": "micro",
    "address_1": "1848 Airline Dr. Suite C",
    "address_2": null,
    "address_3": null,
    "city": "Houston",
    "state_province": "Texas",
    "postal_code": "77009",
    "country": "United States",
    "longitude": null,
    "latitude": null,
    "phone": null,
    "website_url": null,
    "state": "Texas",
    "street": "1848 Airline Dr. Suite C"
  },
  {
    "id": "b212b659-6819-42c5-b5f2-93e735486d10",
    "name": "Under The Radar Brewery",
    "brewery_type": "micro",
    "address_1": "1506 Truxillo St",
    "address_2": null,
    "address_3": null,
    "city": "Houston",
    "state_province": "Texas",
    "postal_code": "77004-3960",
    "country": "United States",
    "longitude": "-95.3759411",
    "latitude": "29.7342113",
    "phone": "7133202766",
    "website_url": "http://www.undertheradarbrewery.com",
    "state": "Texas",
    "street": "1506 Truxillo St"
  },
  {
    "id": "bb868abb-212b-4862-a8b2-0077272c9dfc",
    "name": "Whitis AleWorks",
    "brewery_type": "planning",
    "address_1": null,
    "address_2": null,
    "address_3": null,
    "city": "Houston",
    "state_province": "Texas",
    "postal_code": "77069-3424",
    "country": "United States",
    "longitude": null,
    "latitude": null,
    "phone": null,
    "website_url": null,
    "state": "Texas",
    "street": null
  },
  {
    "id": "b024ba44-162a-4194-b8b8-84c0085a58f6",
    "name": "Whole Foods Market Brewing Company",
    "brewery_type": "micro",
    "address_1": "1700 Post Oak Blvd Ste 1G101",
    "address_2": null,
    "address_3": null,
    "city": "Houston",
    "state_province": "Texas",
    "postal_code": "77056-3963",
    "country": "United States",
    "longitude": null,
    "latitude": null,
    "phone": "7133460537",
    "website_url": "https://www.wholefoodsmarket.com/",
    "state": "Texas",
    "street": "1700 Post Oak Blvd Ste 1G101"
  },
  {
    "id": "8bf7e66c-cc29-473a-adf8-b63cf5cc3e69",
    "name": "Braindead Brewing",
    "brewery_type": "brewpub",
    "address_1": "2625 Main St",
    "address_2": null,
    "address_3": null,
    "city": "Dallas",
    "state_province": "Texas",
    "postal_code": "75226-1411",
    "country": "United States",
    "longitude": "-96.7854202",
    "latitude": "32.7838067",
    "phone": "4692869005",
    "website_url": "http://www.braindeadbrewing.com",
    "state": "Texas",
    "street": "2625 Main St"
  },
  {
    "id": "ff07eef9-fd76-4909-9f8b-e3d690dab516",
    "name": "Community Beer Co",
    "brewery_type": "regional",
    "address_1": "1530 Inspiration Dr # 200",
    "address_2": null,
    "address_3": null,
    "city": "Dallas",
    "state_province": "Texas",
    "postal_code": "75207-3703",
    "country": "United States",
    "longitude": "-96.81658792",
    "latitude": "32.79177896",
    "phone": null,
    "website_url": null,
    "state": "Texas",
    "street": "1530 Inspiration Dr # 200"
  },
  {
    "id": "532b0c2e-6f35-448e-8f77-2e4042be5e9b",
    "name": "Deanitude Brewing Company, LLC",
    "brewery_type": "planning",
    "address_1": null,
    "address_2": null,
    "address_3": null,
    "city": "Dallas",
    "state_province": "Texas",
    "postal_code": "75225-0734",
    "country": "United States",
    "longitude": null,
    "latitude": null,
    "phone": "2143600004",
    "website_url": "http://www.deanitudebrewing.com",
    "state": "Texas",
    "street": null
  },
  {
    "id": "1998961a-6504-470f-af2a-15cef23e71b0",
    "name": "Deep Ellum Brewing Co",
    "brewery_type": "regional",
    "address_1": "2821 Saint Louis St",
    "address_2": null,
    "address_3": null,
    "city": "Dallas",
    "state_province": "Texas",
    "postal_code": "75226-1904",
    "country": "United States",
    "longitude": "-96.78156845",
    "latitude": "32.78062733",
    "phone": "2148883322",
    "website_url": "http://www.deepellumbrewing.com",
    "state": "Texas",
    "street": "2821 Saint Louis St"
  },
  {
    "id": "2b86493e-8c1c-496f-91e3-8b770349e281",
    "name": "Four Corners Brewing Co",
    "brewery_type": "micro",
    "address_1": "423 Singleton Blvd",
    "address_2": null,
    "address_3": null,
    "city": "Dallas",
    "state_province": "Texas",
    "postal_code": "75212-4104",
    "country": "United States",
    "longitude": "-96.83062417",
    "latitude": "32.7793491",
    "phone": "2147482739",
    "website_url": "http://www.fcbrewing.com",
    "state": "Texas",
    "street": "423 Singleton Blvd"
  },
  {
    "id": "dde3ee18-a2c9-4118-a0d1-dced77329738",
    "name": "Four Corners Brewing Co",
    "brewery_type": "micro",
    "address_1": "1311 S Ervay St",
    "address_2": null,
    "address_3": null,
    "city": "Dallas",
    "state_province": "Texas",
    "postal_code": "75215",
    "country": "United States",
    "longitude": "-96.79155915",
    "latitude": "32.77172705",
    "phone": "2147482739",
    "website_url": null,
    "state": "Texas",
    "street": "1311 S Ervay St"
  },
  {
    "id": "f9e4a98f-a333-4f66-826a-6af127c1fdb7",
    "name": "Humperdinks - Dallas (Greenville)",
    "brewery_type": "brewpub",
    "address_1": "6050 Greenville Ave",
    "address_2": null,
    "address_3": null,
    "city": "Dallas",
    "state_province": "Texas",
    "postal_code": "75206-1909",
    "country": "United States",
    "longitude": "-96.76798455",
    "latitude": "32.8586789",
    "phone": "2143681203",
    "website_url": "http://www.humperdinks.com",
    "state": "Texas",
    "street": "6050 Greenville Ave"
  },
  {
    "id": "247250ee-18e2-4d05-b522-cd78444e34c9",
    "name": "Humperdinks Restaurant",
    "brewery_type": "brewpub",
    "address_1": "2208 W Northwest Hwy",
    "address_2": null,
    "address_3": null,
    "city": "Dallas",
    "state_province": "Texas",
    "postal_code": "75220-4305",
    "country": "United States",
    "longitude": "-96.89898835",
    "latitude": "32.8637821",
    "phone": "2143584159",
    "website_url": "http://www.humperdinks.com",
    "state": "Texas",
    "street": "2208 W Northwest Hwy"
  },
  {
    "id": "27b8a5c5-c9b0-4379-92c5-b51227419527",
    "name": "Noble Rey Brewing Company",
    "brewery_type": "micro",
    "address_1": "2636 Farrington St",
    "address_2": null,
    "address_3": null,
    "city": "Dallas",
    "state_province": "Texas",
    "postal_code": "75207-5908",
    "country": "United States",
    "longitude": "-96.83952145",
    "latitude": "32.79998405",
    "phone": "9726777612",
    "website_url": "http://www.noblereybrewing.com",
    "state": "Texas",
    "street": "2636 Farrington St"
  },
  {
    "id": "e5b56c80-41a9-4101-aeec-ffb683617611",
    "name": "Oak Cliff Brewing Co",
    "brewery_type": "planning",
    "address_1": null,
    "address_2": null,
    "address_3": null,
    "city": "Dallas",
    "state_province": "Texas",
    "postal_code": "75224-1305",
    "country": "United States",
    "longitude": null,
    "latitude": null,
    "phone": null,
    "website_url": null,
    "state": "Texas",
    "street": null
  },
  {
    "id": "7f1f3bd0-82cd-46a7-99b0-0fded816d380",
    "name": "Oak Highlands Brewery",
    "brewery_type": "micro",
    "address_1": "10484 Brockwood Rd",
    "address_2": null,
    "address_3": null,
    "city": "Dallas",
    "state_province": "Texas",
    "postal_code": "75238-1640",
    "country": "United States",
    "longitude": null,
    "latitude": null,
    "phone": "4698029455",
    "website_url": "http://www.ohbrewery.com",
    "state": "Texas",
    "street": "10484 Brockwood Rd"
  },
  {
    "id": "24245887-9267-4799-b5a4-82e95deea0c0",
    "name": "Ole Dallas Brewery",
    "brewery_type": "micro",
    "address_1": null,
    "address_2": null,
    "address_3": null,
    "city": "Dallas",
    "state_province": "North Carolina",
    "postal_code": "28034-9793",
    "country": "United States",
    "longitude": null,
    "latitude": null,
    "phone": "7042661472",
    "website_url": "http://www.oledallasbrewery.com",
    "state": "North Carolina",
    "street": null
  },
  {
    "id": "76934d0b-fc8e-4050-8138-2da6a3059081",
    "name": "On Rotation Brewery",
    "brewery_type": "micro",
    "address_1": "7328 Gaston Ave # 110",
    "address_2": null,
    "address_3": null,
    "city": "Dallas",
    "state_province": "Texas",
    "postal_code": "75214-4130",
    "country": "United States",
    "longitude": "-96.731396",
    "latitude": "32.8109335",
    "phone": "9728072588",
    "website_url": "http://www.on-rotation.com",
    "state": "Texas",
    "street": "7328 Gaston Ave # 110"
  },
  {
    "id": "d9e12659-831c-433a-9229-23f71e25c592",
    "name": "Pegasus City Brewery",
    "brewery_type": "micro",
    "address_1": "2222 Vantage St",
    "address_2": null,
    "address_3": null,
    "city": "Dallas",
    "state_province": "Texas",
    "postal_code": "75207-6102",
    "country": "United States",
    "longitude": "-96.83399696",
    "latitude": "32.79915648",
    "phone": "9723667722",
    "website_url": "http://www.pegasuscitybrewery.com",
    "state": "Texas",
    "street": "2222 Vantage St"
  },
  {
    "id": "ce4a02f3-1dd0-4063-bf4b-ffef297c2bbc",
    "name": "Peticolas Brewing Co",
    "brewery_type": "micro",
    "address_1": "2026 Farrington St",
    "address_2": null,
    "address_3": null,
    "city": "Dallas",
    "state_province": "Texas",
    "postal_code": "75207-6616",
    "country": "United States",
    "longitude": "-96.83031882",
    "latitude": "32.79677687",
    "phone": "2142347600",
    "website_url": "http://www.peticolasbrewing.com",
    "state": "Texas",
    "street": "2026 Farrington St"
  },
  {
    "id": "221f2f9d-0a0d-4a0e-812d-52a323b9b0b6",
    "name": "Small Brewpub",
    "brewery_type": "brewpub",
    "address_1": "333 W Jefferson Blvd",
    "address_2": null,
    "address_3": null,
    "city": "Dallas",
    "state_province": "Texas",
    "postal_code": "75208-4602",
    "country": "United States",
    "longitude": "-96.924553",
    "latitude": "32.747739",
    "phone": "9728631594",
    "website_url": "http://www.smallbrewpub.com",
    "state": "Texas",
    "street": "333 W Jefferson Blvd"
  },
  {
    "id": "c04f39d4-df5f-48d4-9645-148072eeb9f5",
    "name": "Steam Theory Brewing Co",
    "brewery_type": "planning",
    "address_1": null,
    "address_2": null,
    "address_3": null,
    "city": "Dallas",
    "state_province": "Texas",
    "postal_code": "75212-4101",
    "country": "United States",
    "longitude": null,
    "latitude": null,
    "phone": null,
    "website_url": "http://www.steamtheorybrewing.com",
    "state": "Texas",
    "street": null
  },
  {
    "id": "84d2bd86-eaec-49d4-b4b8-8076e4905e01",
    "name": "Texas Ale Project",
    "brewery_type": "micro",
    "address_1": "1001 N Riverfront Blvd",
    "address_2": null,
    "address_3": null,
    "city": "Dallas",
    "state_province": "Texas",
    "postal_code": "75207-4201",
    "country": "United States",
    "longitude": "-96.8148593",
    "latitude": "32.7818812",
    "phone": "2149650606",
    "website_url": "http://www.texasaleproject.com",
    "state": "Texas",
    "street": "1001 N Riverfront Blvd"
  },
  {
    "id": "a30a71ca-d8c6-4413-b939-f38667f4ef6e",
    "name": "The Malai Kitchen",
    "brewery_type": "brewpub",
    "address_1": "3699 McKinney Ave Ste 319",
    "address_2": null,
    "address_3": null,
    "city": "Dallas",
    "state_province": "Texas",
    "postal_code": "75204-4563",
    "country": "United States",
    "longitude": "-96.796677",
    "latitude": "32.808204",
    "phone": "2145997857",
    "website_url": "http://www.malaikitchen.com",
    "state": "Texas",
    "street": "3699 McKinney Ave Ste 319"
  },
  {
    "id": "2198a974-f3cd-4290-83b7-a3d0600ad12d",
    "name": "The North Slope Brewing Company",
    "brewery_type": "brewpub",
    "address_1": "2439 Sr 309 Hwy",
    "address_2": null,
    "address_3": null,
    "city": "Dallas",
    "state_province": "Pennsylvania",
    "postal_code": "18612-9251",
    "country": "United States",
    "longitude": null,
    "latitude": null,
    "phone": "5702554012",
    "website_url": "http://www.northslopebrewing.com",
    "state": "Pennsylvania",
    "street": "2439 Sr 309 Hwy"
  },
  {
    "id": "f009d054-be17-483a-a58c-d7f9021aea80",
    "name": "Valkyrie Brewing",
    "brewery_type": "micro",
    "address_1": "234 W Dallas St",
    "address_2": null,
    "address_3": null,
    "city": "Dallas",
    "state_province": "Wisconsin",
    "postal_code": "54733-9706",
    "country": "United States",
    "longitude": null,
    "latitude": null,
    "phone": "7158371824",
    "website_url": "http://www.valkyriebrewery.com",
    "state": "Wisconsin",
    "street": "234 W Dallas St"
  },
  {
    "id": "00950932-b737-4232-a18b-84106a891c93",
    "name": "Westlake Brewing Company",
    "brewery_type": "planning",
    "address_1": null,
    "address_2": null,
    "address_3": null,
    "city": "Dallas",
    "state_province": "Texas",
    "postal_code": "75226-1607",
    "country": "United States",
    "longitude": null,
    "latitude": null,
    "phone": "8779942337",
    "website_url": "http://www.westlakebeer.com",
    "state": "Texas",
    "street": null
  },
  {
    "id": "ee5bf449-cae4-4ae4-a626-faa1d2ea35b5",
    "name": "White Rock Alehouse \u0026 Brewery",
    "brewery_type": "brewpub",
    "address_1": "7331 Gaston Ave, Suite 100",
    "address_2": null,
    "address_3": null,
    "city": "Dallas",
    "state_province": "Texas",
    "postal_code": "75214",
    "country": "United States",
    "longitude": null,
    "latitude": null,
    "phone": "2149897570",
    "website_url": "http://www.whiterockalehouse.com",
    "state": "Texas",
    "street": "7331 Gaston Ave, Suite 100"
  },
  {
    "id": "1f10ffbf-b7bc-4704-bc6e-8101de47917f",
    "name": "Wyndridge Farm Brewing",
    "brewery_type": "brewpub",
    "address_1": "885 S Pleasant Ave",
    "address_2": null,
    "address_3": null,
    "city": "Dallastown",
    "state_province": "Pennsylvania",
    "postal_code": "17313-9650",
    "country": "United States",
    "longitude": "-76.644864",
    "latitude": "39.893878",
    "phone": "7172449900",
    "website_url": "http://www.wyndridge.com",
    "state": "Pennsylvania",
    "street": "885 S Pleasant Ave"
  },
  {
    "id": "9c5a66c8-cc13-416f-a5d9-0a769c87d318",
    "name": "(512) Brewing Co",
    "brewery_type": "micro",
    "address_1": "407 Radam Ln Ste F200",
    "address_2": null,
    "address_3": null,
    "city": "Austin",
    "state_province": "Texas",
    "postal_code": "78745-1197",
    "country": "United States",
    "longitude": null,
    "latitude": null,
    "phone": "5129211545",
    "website_url": "http://www.512brewing.com",
    "state": "Texas",
    "street": "407 Radam Ln Ste F200"
  },
  {
    "id": "760e8395-f2a2-4161-9bf1-c72ed1aa6ae3",
    "name": "4th Tap Brewing Cooperative",
    "brewery_type": "micro",
    "address_1": "10615 Metric Blvd",
    "address_2": null,
    "address_3": null,
    "city": "Austin",
    "state_province": "Texas",
    "postal_code": "78758-4520",
    "country": "United States",
    "longitude": "-97.7118913",
    "latitude": "30.3852024",
    "phone": "5129089817",
    "website_url": null,
    "state": "Texas",
    "street": "10615 Metric Blvd"
  },
  {
    "id": "9ff5f718-dee7-4e69-b79c-6250de87e840",
    "name": "Adelbert's Brewery LLC",
    "brewery_type": "micro",
    "address_1": "2314 Rutland Dr Ste 100",
    "address_2": null,
    "address_3": null,
    "city": "Austin",
    "state_province": "Texas",
    "postal_code": "78758-5273",
    "country": "United States",
    "longitude": "-97.7201589",
    "latitude": "30.3826286",
    "phone": "5126621462",
    "website_url": "http://www.adelbertsbeer.com",
    "state": "Texas",
    "street": "2314 Rutland Dr Ste 100"
  },
  {
    "id": "9a280fbb-adee-484a-876b-50e71235a711",
    "name": "Austin Beerworks",
    "brewery_type": "regional",
    "address_1": "3001 Industrial Ter",
    "address_2": null,
    "address_3": null,
    "city": "Austin",
    "state_province": "Texas",
    "postal_code": "78758-7609",
    "country": "United States",
    "longitude": "-97.72984444",
    "latitude": "30.3795705",
    "phone": "5128212494",
    "website_url": "http://www.austinbeerworks.com",
    "state": "Texas",
    "street": "3001 Industrial Ter"
  },
  {
    "id": "d605f25e-f132-4c42-94cb-0ec7fc4fe50c",
    "name": "Barrel Assembly",
    "brewery_type": "planning",
    "address_1": null,
    "address_2": null,
    "address_3": null,
    "city": "Austin",
    "state_province": "Texas",
    "postal_code": "78751-3019",
    "country": "United States",
    "longitude": null,
    "latitude": null,
    "phone": "15124236579",
    "website_url": "http://www.barrelassembly.com",
    "state": "Texas",
    "street": null
  },
  {
    "id": "a0fe534d-c9f1-4232-88cd-b918d16952d8",
    "name": "Batch Craft Beer and Kolaches",
    "brewery_type": "planning",
    "address_1": null,
    "address_2": null,
    "address_3": null,
    "city": "Austin",
    "state_province": "Texas",
    "postal_code": "78723",
    "country": "United States",
    "longitude": null,
    "latitude": null,
    "phone": "5124013025",
    "website_url": "http://www.batchatx.com",
    "state": "Texas",
    "street": null
  },
  {
    "id": "ddad9761-9bd4-4dbd-a744-890c38eb61ac",
    "name": "Biker Brew House",
    "brewery_type": "micro",
    "address_1": "5700 Interstate Blvd",
    "address_2": null,
    "address_3": null,
    "city": "Austintown",
    "state_province": "Ohio",
    "postal_code": "44515-1170",
    "country": "United States",
    "longitude": null,
    "latitude": null,
    "phone": null,
    "website_url": "http://www.bikerbrewhouse.com",
    "state": "Ohio",
    "street": "5700 Interstate Blvd"
  },
  {
    "id": "3a255fa1-c05a-42ce-ad91-181fbe91473d",
    "name": "Black Star Co-op",
    "brewery_type": "brewpub",
    "address_1": "7020 Easy Wind Dr Ste 100",
    "address_2": null,
    "address_3": null,
    "city": "Austin",
    "state_province": "Texas",
    "postal_code": "78752-2373",
    "country": "United States",
    "longitude": "-97.718977",
    "latitude": "30.3383262",
    "phone": "5124522337",
    "website_url": "http://www.blackstar.coop",
    "state": "Texas",
    "street": "7020 Easy Wind Dr Ste 100"
  },
  {
    "id": "5c4c95ae-4128-4510-b2c7-2a7c483de5a2",
    "name": "Blue Owl Brewing",
    "brewery_type": "micro",
    "address_1": "2400 E Cesar Chavez St Ste 300",
    "address_2": null,
    "address_3": null,
    "city": "Austin",
    "state_province": "Texas",
    "postal_code": "78702-4638",
    "country": "United States",
    "longitude": "-97.7189581",
    "latitude": "30.2545583",
    "phone": "5125931262",
    "website_url": "http://www.blueowlbrewing.com",
    "state": "Texas",
    "street": "2400 E Cesar Chavez St Ste 300"
  },
  {
    "id": "0c7d6d42-ad91-4e1c-8556-c1c1ac8617ae",
    "name": "Bnaf, LLC",
    "brewery_type": "planning",
    "address_1": null,
    "address_2": null,
    "address_3": null,
    "city": "Austin",
    "state_province": "Texas",
    "postal_code": "78727-7602",
    "country": "United States",
    "longitude": null,
    "latitude": null,
    "phone": null,
    "website_url": null,
    "state": "Texas",
    "street": null
  },
  {
    "id": "cadced11-9b86-49ba-a329-f8dcdd51426f",
    "name": "Broken Rock Brewery",
    "brewery_type": "brewpub",
    "address_1": "282 Grindstone Rd Bird Creek Farms",
    "address_2": null,
    "address_3": null,
    "city": "Port Austin",
    "state_province": "Michigan",
    "postal_code": "48467-9390",
    "country": "United States",
    "longitude": null,
    "latitude": null,
    "phone": "2487033114",
    "website_url": "http://birdcreekfarms.com",
    "state": "Michigan",
    "street": "282 Grindstone Rd Bird Creek Farms"
  },
  {
    "id": "1e5fd874-e6fa-4189-ad30-a6aab5e2ec7b",
    "name": "Celis Brewery",
    "brewery_type": "micro",
    "address_1": "10001 Metic Blvd.",
    "address_2": null,
    "address_3": null,
    "city": "Austin",
    "state_province": "Texas",
    "postal_code": "78758",
    "country": "United States",
    "longitude": null,
    "latitude": null,
    "phone": "5125242377",
    "website_url": "http://www.celisbeers.com",
    "state": "Texas",
    "street": "10001 Metic Blvd."
  },
  {
    "id": "729fb6cc-0d37-4179-81fe-73a18e67b667",
    "name": "Central Machine Works",
    "brewery_type": "micro",
    "address_1": "4824 E Cesar Chavez St",
    "address_2": null,
    "address_3": null,
    "city": "Austin",
    "state_province": "Texas",
    "postal_code": "78702-5135",
    "country": "United States",
    "longitude": "-97.7037665",
    "latitude": "30.2520225",
    "phone": "512-220-2340",
    "website_url": "http://cmwbrewery.com/",
    "state": "Texas",
    "street": "4824 E Cesar Chavez St"
  },
  {
    "id": "b9ff8168-abfc-429d-b6d4-8322c671a96d",
    "name": "Circle Brewing Company",
    "brewery_type": "micro",
    "address_1": "2340 W Braker Ln Ste B",
    "address_2": null,
    "address_3": null,
    "city": "Austin",
    "state_province": "Texas",
    "postal_code": "78758-4542",
    "country": "United States",
    "longitude": null,
    "latitude": null,
    "phone": "5128147599",
    "website_url": "http://www.circlebrewing.com",
    "state": "Texas",
    "street": "2340 W Braker Ln Ste B"
  },
  {
    "id": "e4895f5c-e308-4d17-893f-2f86bb50868d",
    "name": "Destination Brewing Company",
    "brewery_type": "contract",
    "address_1": "2708 Lawrence Drive",
    "address_2": null,
    "address_3": null,
    "city": "Austin",
    "state_province": "Texas",
    "postal_code": "78734",
    "country": "United States",
    "longitude": null,
    "latitude": null,
    "phone": "5129659858",
    "website_url": "http://www.destinationbrewing.co",
    "state": "Texas",
    "street": "2708 Lawrence Drive"
  },
  {
    "id": "9e3d79b0-5411-425d-9ead-e86abeb58c98",
    "name": "Draught House Pub and Brewery",
    "brewery_type": "micro",
    "address_1": "4112 Medical Pkwy Ste 100",
    "address_2": null,
    "address_3": null,
    "city": "Austin",
    "state_province": "Texas",
    "postal_code": "78756-3715",
    "country": "United States",
    "longitude": "-97.7428611",
    "latitude": "30.3110713",
    "phone": "5124526258",
    "website_url": "http://www.draughthouse.com",
    "state": "Texas",
    "street": "4112 Medical Pkwy Ste 100"
  },
  {
    "id": "7095f8fc-bb6c-4bd3-88e2-b4900e0ceee0",
    "name": "Flying Man Brewing Company",
    "brewery_type": "micro",
    "address_1": "2400 Patterson Industrial",
    "address_2": null,
    "address_3": null,
    "city": "Austin",
    "state_province": "Texas",
    "postal_code": "78660",
    "country": "United States",
    "longitude": null,
    "latitude": null,
    "phone": "5129104099",
    "website_url": "http://www.flyingmanbrewing.com",
    "state": "Texas",
    "street": "2400 Patterson Industrial"
  },
  {
    "id": "b73eb538-fd72-4c98-8ea2-b20b60abfb21",
    "name": "Friends and Allies Brewing Company",
    "brewery_type": "micro",
    "address_1": "979 Springdale Rd Ste 124",
    "address_2": null,
    "address_3": null,
    "city": "Austin",
    "state_province": "Texas",
    "postal_code": "78702-3753",
    "country": "United States",
    "longitude": "-97.6961854",
    "latitude": "30.2628616",
    "phone": null,
    "website_url": "http://www.friendsandallies.beer",
    "state": "Texas",
    "street": "979 Springdale Rd Ste 124"
  },
  {
    "id": "bfe40849-06b8-42b7-82be-fa81af4f221f",
    "name": "Frontyard Brewing",
    "brewery_type": "micro",
    "address_1": "1607 Cuernavaca Dr North Unit #202",
    "address_2": null,
    "address_3": null,
    "city": "Austin",
    "state_province": "Texas",
    "postal_code": "78733",
    "country": "United States",
    "longitude": null,
    "latitude": null,
    "phone": "8503227498",
    "website_url": "http://www.frontyardbrewing.com",
    "state": "Texas",
    "street": "1607 Cuernavaca Dr North Unit #202"
  },
  {
    "id": "479ee657-8907-4983-9ec4-8d7f1372c69e",
    "name": "Hi Sign Brewing",
    "brewery_type": "micro",
    "address_1": "1201 Old Bastrop Hwy Bldg A",
    "address_2": null,
    "address_3": null,
    "city": "Austin",
    "state_province": "Texas",
    "postal_code": "78742-2600",
    "country": "United States",
    "longitude": null,
    "latitude": null,
    "phone": "5123825264",
    "website_url": "http://www.hisignbrewing.com",
    "state": "Texas",
    "street": "1201 Old Bastrop Hwy Bldg A"
  },
  {
    "id": "3f966d4c-cd26-463b-81b0-f30923649fa1",
    "name": "Hold Out Brewing",
    "brewery_type": "micro",
    "address_1": "1208 W 4th St",
    "address_2": null,
    "address_3": null,
    "city": "Austin",
    "state_province": "Texas",
    "postal_code": "78703-5203",
    "country": "United States",
    "longitude": "-97.7611333",
    "latitude": "30.2713864",
    "phone": "2103165572",
    "website_url": "http://www.holdoutbrewing.com",
    "state": "Texas",
    "street": "1208 W 4th St"
  },
  {
    "id": "d357d621-bbbc-4007-a5a3-b9bf6fb5f176",
    "name": "Hopped And Brewed",
    "brewery_type": "planning",
    "address_1": null,
    "address_2": null,
    "address_3": null,
    "city": "Austin",
    "state_province": "Texas",
    "postal_code": "78681-7333",
    "country": "United States",
    "longitude": null,
    "latitude": null,
    "phone": "5129225879",
    "website_url": "http://Hoppedandbrewed@gmail.com",
    "state": "Texas",
    "street": null
  },
  {
    "id": "de52f2b1-2821-4958-937c-37296e25fcf2",
    "name": "Hops \u0026 Grain Brewing",
    "brewery_type": "micro",
    "address_1": "507 Calles St Ste 101",
    "address_2": null,
    "address_3": null,
    "city": "Austin",
    "state_province": "Texas",
    "postal_code": "78702-3954",
    "country": "United States",
    "longitude": null,
    "latitude": null,
    "phone": "5129142467",
    "website_url": "http://www.hopsandgrain.com",
    "state": "Texas",
    "street": "507 Calles St Ste 101"
  },
  {
    "id": "17e75f2d-a365-4ad0-99a7-4e5b4ca3088c",
    "name": "Independence Brewing",
    "brewery_type": "regional",
    "address_1": "3913 Todd Ln Ste 607",
    "address_2": null,
    "address_3": null,
    "city": "Austin",
    "state_province": "Texas",
    "postal_code": "78744-1061",
    "country": "United States",
    "longitude": "-97.7361012",
    "latitude": "30.2111313",
    "phone": "5127070099",
    "website_url": "http://www.independencebrewing.com",
    "state": "Texas",
    "street": "3913 Todd Ln Ste 607"
  },
  {
    "id": "93d9f4fb-7f29-4f3b-bac7-c9e9cca9600e",
    "name": "Infamous Brewing",
    "brewery_type": "micro",
    "address_1": "4602 Weletka Dr",
    "address_2": null,
    "address_3": null,
    "city": "Austin",
    "state_province": "Texas",
    "postal_code": "78734-1829",
    "country": "United States",
    "longitude": null,
    "latitude": null,
    "phone": "5124878786",
    "website_url": "http://www.infamousbrewing.com",
    "state": "Texas",
    "street": "4602 Weletka Dr"
  },
  {
    "id": "e2139f79-90cb-4ca3-9f42-029569204f91",
    "name": "Jester King Brewery",
    "brewery_type": "micro",
    "address_1": "13187 Fitzhugh Rd",
    "address_2": null,
    "address_3": null,
    "city": "Austin",
    "state_province": "Texas",
    "postal_code": "78736-6510",
    "country": "United States",
    "longitude": "-98.0824692",
    "latitude": "30.2547264",
    "phone": "5125375100",
    "website_url": "http://www.jesterkingbrewery.com",
    "state": "Texas",
    "street": "13187 Fitzhugh Rd"
  },
  {
    "id": "940ff56d-c454-425a-9de1-ceda447405af",
    "name": "Last Stand Brewing Company",
    "brewery_type": "micro",
    "address_1": "12345 Pauls Valley Rd",
    "address_2": null,
    "address_3": null,
    "city": "Austin",
    "state_province": "Texas",
    "postal_code": "78737-9615",
    "country": "United States",
    "longitude": null,
    "latitude": null,
    "phone": "5123733629",
    "website_url": "http://www.laststandbrewing.com",
    "state": "Texas",
    "street": "12345 Pauls Valley Rd"
  },
  {
    "id": "fb886548-908a-4589-9c34-aa5bebe7a114",
    "name": "Lazarus Brewing Company",
    "brewery_type": "brewpub",
    "address_1": "1902 E 6th St",
    "address_2": null,
    "address_3": null,
    "city": "Austin",
    "state_province": "Texas",
    "postal_code": "78702-3402",
    "country": "United States",
    "longitude": "-97.7220388",
    "latitude": "30.2616838",
    "phone": null,
    "website_url": "http://www.lazarusbrewing.com",
    "state": "Texas",
    "street": "1902 E 6th St"
  },
  {
    "id": "4898f503-7bb3-494f-98dc-921d032912ef",
    "name": "Nomadic Beerworks",
    "brewery_type": "micro",
    "address_1": "3804 Woodbury Dr Suita A",
    "address_2": null,
    "address_3": null,
    "city": "Austin",
    "state_province": "Texas",
    "postal_code": "78704",
    "country": "United States",
    "longitude": "-97.7627464",
    "latitude": "30.2244374",
    "phone": null,
    "website_url": "http://www.nomadicbeerworks.com",
    "state": "Texas",
    "street": "3804 Woodbury Dr Suita A"
  },
  {
    "id": "a5719005-b4e5-49c8-95ed-47f6c6fcec05",
    "name": "North By Northwest Restaurant and Brewery - North Capital",
    "brewery_type": "brewpub",
    "address_1": "10010 N Capital of Texas Hwy",
    "address_2": null,
    "address_3": null,
    "city": "Austin",
    "state_province": "Texas",
    "postal_code": "78759-5837",
    "country": "United States",
    "longitude": null,
    "latitude": null,
    "phone": "5124676969",
    "website_url": "http://www.nxnwbrew.com",
    "state": "Texas",
    "street": "10010 N Capital of Texas Hwy"
  },
  {
    "id": "6232a3d2-740c-4c51-b69f-234f44a6d003",
    "name": "North By Northwest Restaurant and Brewery - Slaughter",
    "brewery_type": "brewpub",
    "address_1": "5701 W Slaughter Ln Bld D",
    "address_2": null,
    "address_3": null,
    "city": "Austin",
    "state_province": "Texas",
    "postal_code": "78759-5837",
    "country": "United States",
    "longitude": null,
    "latitude": null,
    "phone": "5124676969",
    "website_url": null,
    "state": "Texas",
    "street": "5701 W Slaughter Ln Bld D"
  },
  {
    "id": "5398673e-abb7-4855-ab70-276b95e0147f",
    "name": "Oasis Texas Brewing Company",
    "brewery_type": "micro",
    "address_1": "6548 Comanche Trl Ste 301",
    "address_2": null,
    "address_3": null,
    "city": "Austin",
    "state_province": "Texas",
    "postal_code": "78732-1210",
    "country": "United States",
    "longitude": "-98.151206",
    "latitude": "30.043267",
    "phone": "5122849407",
    "website_url": "http://www.otxbc.com",
    "state": "Texas",
    "street": "6548 Comanche Trl Ste 301"
  },
  {
    "id": "c922d09e-1c59-44c2-906e-1cd7493b5867",
    "name": "Oddwood Ales",
    "brewery_type": "brewpub",
    "address_1": "3108 Manor Rd",
    "address_2": null,
    "address_3": null,
    "city": "Austin",
    "state_province": "Texas",
    "postal_code": "78723-5719",
    "country": "United States",
    "longitude": null,
    "latitude": null,
    "phone": null,
    "website_url": "http://www.oddwoodales.com",
    "state": "Texas",
    "street": "3108 Manor Rd"
  },
  {
    "id": "2f6072fd-ecfc-4842-ad47-8d39c0eb2d20",
    "name": "Orf Brewing",
    "brewery_type": "micro",
    "address_1": "4700 Burleson Rd Ste F",
    "address_2": null,
    "address_3": null,
    "city": "Austin",
    "state_province": "Texas",
    "postal_code": "78744-1230",
    "country": "United States",
    "longitude": null,
    "latitude": null,
    "phone": "5124285217",
    "website_url": "http://www.orfbrewing.com",
    "state": "Texas",
    "street": "4700 Burleson Rd Ste F"
  },
  {
    "id": "d128cc62-6893-4c15-bdde-6d23b55822cc",
    "name": "Oskar Blues Brewery",
    "brewery_type": "micro",
    "address_1": "10420 Metric Blvd # 150",
    "address_2": null,
    "address_3": null,
    "city": "Austin",
    "state_province": "Texas",
    "postal_code": "78758-4939",
    "country": "United States",
    "longitude": "-97.71470248",
    "latitude": "30.3839295",
    "phone": "5122437054",
    "website_url": null,
    "state": "Texas",
    "street": "10420 Metric Blvd # 150"
  },
  {
    "id": "b648c0ea-b1df-4f26-96fb-403d963c07e3",
    "name": "Paladin Brewing",
    "brewery_type": "micro",
    "address_1": "6520 Mahoning Ave",
    "address_2": null,
    "address_3": null,
    "city": "Austintown",
    "state_province": "Ohio",
    "postal_code": "44515-2012",
    "country": "United States",
    "longitude": "-80.78742748",
    "latitude": "41.099487",
    "phone": "3305506338",
    "website_url": "http://www.paladinbrewing.com",
    "state": "Ohio",
    "street": "6520 Mahoning Ave"
  },
  {
    "id": "590c1861-3175-4f4f-8b2d-051d2db81294",
    "name": "Pinthouse Pizza North",
    "brewery_type": "brewpub",
    "address_1": "4729 Burnet Rd",
    "address_2": null,
    "address_3": null,
    "city": "Austin",
    "state_province": "Texas",
    "postal_code": "78756-2826",
    "country": "United States",
    "longitude": "-97.7390631",
    "latitude": "30.3187523",
    "phone": null,
    "website_url": "http://www.pinthousepizza.com",
    "state": "Texas",
    "street": "4729 Burnet Rd"
  },
  {
    "id": "9a8b0b19-2a32-4f4e-97c6-890cb9bf42b9",
    "name": "Pinthouse Pizza South",
    "brewery_type": "brewpub",
    "address_1": "4236 S Lamar Blvd",
    "address_2": null,
    "address_3": null,
    "city": "Austin",
    "state_province": "Texas",
    "postal_code": "78704-7905",
    "country": "United States",
    "longitude": "-97.7958917",
    "latitude": "30.2361072",
    "phone": "5125685300",
    "website_url": "http://www.pinthousepizza.com",
    "state": "Texas",
    "street": "4236 S Lamar Blvd"
  },
  {
    "id": "581f4005-1088-4fdf-b2f2-dd71151c88f6",
    "name": "Resignation Brewery",
    "brewery_type": "contract",
    "address_1": "98 San Jacinto Blvd Ste 160",
    "address_2": null,
    "address_3": null,
    "city": "Austin",
    "state_province": "Texas",
    "postal_code": "78701-4640",
    "country": "United States",
    "longitude": "-97.742323",
    "latitude": "30.262322",
    "phone": "4254833232",
    "website_url": "http://www.kccobrewery.com",
    "state": "Texas",
    "street": "98 San Jacinto Blvd Ste 160"
  },
  {
    "id": "5f426984-68f1-4f2b-9bed-97eba2b6809e",
    "name": "Skull Mechanix Brewing",
    "brewery_type": "micro",
    "address_1": "1005 East St Elmo Rd Bldg 2",
    "address_2": null,
    "address_3": null,
    "city": "Austin",
    "state_province": "Texas",
    "postal_code": "78745",
    "country": "United States",
    "longitude": null,
    "latitude": null,
    "phone": "7373001002",
    "website_url": "http://www.skullmechanix.com",
    "state": "Texas",
    "street": "1005 East St Elmo Rd Bldg 2"
  },
  {
    "id": "846c74cb-9739-4f97-b2b3-631145e7dae9",
    "name": "South Austin Brewery",
    "brewery_type": "micro",
    "address_1": "5701 W Slaughter Ln Bldg A130",
    "address_2": null,
    "address_3": null,
    "city": "Austin",
    "state_province": "Texas",
    "postal_code": "78749-6532",
    "country": "United States",
    "longitude": null,
    "latitude": null,
    "phone": "5123542337",
    "website_url": "http://www.southaustinbrewery.com",
    "state": "Texas",
    "street": "5701 W Slaughter Ln Bldg A130"
  },
  {
    "id": "6c544f75-7fa2-4229-9a63-765c5e756af4",
    "name": "Southern Heights Brewing Co LLC",
    "brewery_type": "micro",
    "address_1": "6014 Techni Center Dr Ste 2-101",
    "address_2": null,
    "address_3": null,
    "city": "Austin",
    "state_province": "Texas",
    "postal_code": "78721-2349",
    "country": "United States",
    "longitude": null,
    "latitude": null,
    "phone": "5126506901",
    "website_url": "http://www.southernheightsbrewing.com",
    "state": "Texas",
    "street": "6014 Techni Center Dr Ste 2-101"
  },
  {
    "id": "34998893-151f-45cd-8868-39ece0153f71",
    "name": "St. Elmo Brewing Company",
    "brewery_type": "micro",
    "address_1": "440 E Saint Elmo Rd",
    "address_2": null,
    "address_3": null,
    "city": "Austin",
    "state_province": "Texas",
    "postal_code": "78745-1281",
    "country": "United States",
    "longitude": "-97.7611749",
    "latitude": "30.2174321",
    "phone": "7373001965",
    "website_url": "http://www.stelmobrewing.com",
    "state": "Texas",
    "street": "440 E Saint Elmo Rd"
  },
  {
    "id": "977bad75-df98-4e2e-ad5a-ac2c6c22d120",
    "name": "Stache Rabbit Brewing Company",
    "brewery_type": "planning",
    "address_1": null,
    "address_2": null,
    "address_3": null,
    "city": "Austin",
    "state_province": "Texas",
    "postal_code": "78727-5907",
    "country": "United States",
    "longitude": null,
    "latitude": null,
    "phone": null,
    "website_url": null,
    "state": "Texas",
    "street": null
  },
  {
    "id": "e16701b2-c0f1-4a14-934f-7e51fa99cc3c",
    "name": "Strange Land Brewery",
    "brewery_type": "micro",
    "address_1": "5904 Bee Cave Road",
    "address_2": null,
    "address_3": null,
    "city": "Austin",
    "state_province": "Texas",
    "postal_code": "78746",
    "country": "United States",
    "longitude": null,
    "latitude": null,
    "phone": "5122762295",
    "website_url": "http://www.strangelandbrewery.com",
    "state": "Texas",
    "street": "5904 Bee Cave Road"
  },
  {
    "id": "89edb92f-550b-4b68-a503-b583d3dcba8f",
    "name": "The Austin Beer Garden Brewing Co",
    "brewery_type": "brewpub",
    "address_1": "1305 W Oltorf St Ste B",
    "address_2": null,
    "address_3": null,
    "city": "Austin",
    "state_province": "Texas",
    "postal_code": "78704-5362",
    "country": "United States",
    "longitude": null,
    "latitude": null,
    "phone": null,
    "website_url": null,
    "state": "Texas",
    "street": "1305 W Oltorf St Ste B"
  },
  {
    "id": "3e4ab49b-b18d-4c12-bbe7-81c213b4b44f",
    "name": "The Brewer's Table",
    "brewery_type": "micro",
    "address_1": "4715 E 5th St",
    "address_2": null,
    "address_3": null,
    "city": "Austin",
    "state_province": "Texas",
    "postal_code": "78702-5033",
    "country": "United States",
    "longitude": "-97.7043433",
    "latitude": "30.2529441",
    "phone": "5126199569",
    "website_url": "http://www.caskandcoal.com",
    "state": "Texas",
    "street": "4715 E 5th St"
  },
  {
    "id": "dcea5b62-4138-4d5e-8789-0cfbf48bb21d",
    "name": "The Brewtorium",
    "brewery_type": "brewpub",
    "address_1": "6015 Dillard Cir Ste A",
    "address_2": null,
    "address_3": null,
    "city": "Austin",
    "state_province": "Texas",
    "postal_code": "78752-4440",
    "country": "United States",
    "longitude": null,
    "latitude": null,
    "phone": "5125240323",
    "website_url": "http://www.thebrewtorium.com",
    "state": "Texas",
    "street": "6015 Dillard Cir Ste A"
  },
  {
    "id": "04f0b99c-2b76-48a7-8314-bfeb665269c5",
    "name": "Thirsty Planet Brewing Co",
    "brewery_type": "micro",
    "address_1": "8201 S Congress Ave",
    "address_2": null,
    "address_3": null,
    "city": "Austin",
    "state_province": "Texas",
    "postal_code": "78745-7305",
    "country": "United States",
    "longitude": "-97.7487141",
    "latitude": "30.2521655",
    "phone": "5128260948",
    "website_url": "http://www.thirstyplanet.net",
    "state": "Texas",
    "street": "8201 S Congress Ave"
  },
  {
    "id": "8b8dec5f-62d9-4970-8425-446c9f72026f",
    "name": "Two Knights Brewing",
    "brewery_type": "planning",
    "address_1": null,
    "address_2": null,
    "address_3": null,
    "city": "Austin",
    "state_province": "Texas",
    "postal_code": "78701-3720",
    "country": "United States",
    "longitude": null,
    "latitude": null,
    "phone": "5124176561",
    "website_url": null,
    "state": "Texas",
    "street": null
  }
]
